City,Cloudiness,Country,Date,Humidity,Lat,Lng,Max Temp,Wind Speed
mataura,100,NZ,1580621085,94,-46.19,168.86,57.0,1.99
cuxhaven,75,DE,1580621085,87,53.87,8.69,45.0,12.75
sao joao da barra,94,BR,1580621085,91,-21.64,-41.05,76.93,5.99
punta arenas,75,CL,1580621085,81,-53.15,-70.92,46.4,19.46
alice springs,90,AU,1580621085,100,-23.7,133.88,66.2,9.17
albany,90,US,1580620864,74,42.6,-73.97,33.01,8.05
bethel,90,US,1580621086,95,41.37,-73.41,39.2,3.13
saskylakh,2,RU,1580621086,91,71.92,114.08,-25.69,8.95
lebu,15,CL,1580621086,97,-37.62,-73.65,48.61,2.84
touros,40,BR,1580621086,88,-5.2,-35.46,77.0,3.36
busselton,0,AU,1580620798,19,-33.65,115.33,87.01,15.03
kodiak,1,US,1580620866,35,57.79,-152.41,23.0,4.7
hohhot,20,CN,1580621086,37,40.81,111.65,19.4,15.66
kaeo,5,NZ,1580621086,63,-35.1,173.78,84.0,1.99
butaritari,92,KI,1580621086,77,3.07,172.79,84.27,16.22
ushuaia,40,AR,1580621086,66,-54.8,-68.3,50.0,4.14
cabatuan,44,PH,1580621087,71,10.88,122.49,79.23,14.14
kedougou,19,SN,1580621087,55,12.56,-12.17,65.98,2.1
tuktoyaktuk,20,CA,1580621087,73,69.45,-133.04,-29.2,10.29
verin,100,ES,1580621087,99,41.94,-7.44,55.0,4.56
midland,1,US,1580620972,24,32.0,-102.08,55.4,11.41
narsaq,0,GL,1580621087,49,60.92,-46.05,-2.2,5.59
dikson,0,RU,1580621087,90,73.51,80.55,-14.85,12.33
ternate,28,ID,1580620645,69,0.8,127.4,83.66,5.17
rikitea,71,PF,1580621088,81,-23.12,-134.97,79.36,14.34
san patricio,91,MX,1580621088,76,19.22,-104.7,76.39,4.63
medicine hat,90,CA,1580620934,100,50.05,-110.67,33.8,12.75
souillac,75,MU,1580621088,78,-20.52,57.52,82.4,10.29
atambua,100,ID,1580620644,65,-9.11,124.89,83.16,5.95
bambous virieux,75,MU,1580621088,78,-20.34,57.76,82.4,10.29
turukhansk,0,RU,1580621088,84,65.82,87.98,-23.98,8.55
bubaque,18,GW,1580621088,73,11.28,-15.83,77.72,8.25
namibe,100,AO,1580621088,82,-15.2,12.15,75.51,9.35
jamestown,90,US,1580621088,92,42.1,-79.24,32.0,6.93
hermanus,53,ZA,1580621088,80,-34.42,19.23,70.0,1.01
hobart,40,AU,1580620818,39,-42.88,147.33,66.2,23.04
henties bay,36,NA,1580621089,94,-22.12,14.28,62.01,1.99
castro,100,BR,1580621089,99,-24.79,-50.01,65.8,5.12
new norfolk,40,AU,1580621089,34,-42.78,147.06,68.0,25.28
yellowknife,40,CA,1580620972,75,62.46,-114.35,-18.0,8.05
pevek,100,RU,1580621089,92,69.7,170.31,-18.17,3.24
bluff,100,NZ,1580621089,94,-46.6,168.33,57.0,1.99
poum,100,NC,1580621089,80,-20.23,164.02,81.23,21.79
galle,71,LK,1580621089,62,6.04,80.22,82.0,3.85
zaysan,100,KZ,1580621089,92,47.47,84.87,7.36,1.83
qaanaaq,20,GL,1580621090,69,77.48,-69.36,-25.55,5.08
dukat,93,RU,1580621090,98,62.55,155.55,-30.77,4.83
uhlove,56,UA,1580621090,88,44.82,33.6,48.11,20.22
clyde river,1,CA,1580621090,67,70.47,-68.59,-25.6,4.7
north battleford,90,CA,1580621090,74,52.78,-108.28,33.8,11.41
iquitos,90,PE,1580621090,94,-3.75,-73.25,75.2,3.83
port alfred,100,ZA,1580621090,98,-33.59,26.89,72.0,7.36
kahului,40,US,1580621090,68,20.89,-156.47,73.4,10.29
airai,100,TL,1580621090,75,-8.93,125.41,78.04,2.66
thompson,90,CA,1580621090,85,55.74,-97.86,10.4,5.82
aykhal,73,RU,1580621090,66,66.0,111.5,-32.8,4.47
cherskiy,100,RU,1580621091,97,68.75,161.3,-28.79,5.14
srandakan,100,ID,1580621091,74,-7.94,110.25,83.88,10.09
aguimes,0,ES,1580621091,51,27.91,-15.45,63.0,5.82
oranjestad,75,AW,1580621067,78,12.52,-70.03,80.6,17.22
hualmay,83,PE,1580621091,88,-11.1,-77.61,69.51,3.58
bredasdorp,88,ZA,1580621091,88,-34.53,20.04,69.8,11.41
avarua,0,CK,1580621091,78,-21.21,-159.78,80.6,9.17
bon air,1,US,1580621091,93,37.52,-77.56,44.01,6.93
koltubanovskiy,100,RU,1580621091,96,52.94,52.03,25.52,4.27
helong,69,CN,1580621092,51,42.54,129.0,19.6,4.32
comodoro rivadavia,0,AR,1580621092,47,-45.87,-67.5,57.2,19.46
bozoum,0,CF,1580621092,20,6.32,16.38,64.24,5.14
moose factory,90,CA,1580621092,96,51.26,-80.61,32.0,8.05
sungairaya,65,ID,1580621092,64,0.7,108.9,89.11,5.75
nemuro,20,JP,1580621092,58,43.32,145.57,26.6,4.7
marystown,100,CA,1580621092,83,47.17,-55.15,28.81,18.92
hilo,90,US,1580621092,83,19.73,-155.09,69.8,8.05
cidreira,75,BR,1580621092,81,-30.18,-50.21,74.71,18.43
atuona,34,PF,1580621092,76,-9.8,-139.03,81.32,18.32
kununurra,90,AU,1580621093,78,-15.77,128.73,82.4,6.93
boende,76,CD,1580621093,74,-0.22,20.87,76.32,2.17
khatanga,100,RU,1580621093,94,71.97,102.5,-21.24,13.06
constitucion,0,CL,1580621093,88,-35.33,-72.42,58.15,4.14
hambantota,29,LK,1580621093,74,6.12,81.12,84.2,14.99
tambura,0,SS,1580621093,21,5.6,27.47,72.34,5.57
mount isa,40,AU,1580621093,44,-20.73,139.5,93.2,8.05
isangel,75,VU,1580621093,62,-19.55,169.27,87.8,5.82
salinas,1,US,1580621093,87,36.68,-121.66,55.0,1.12
hasaki,75,JP,1580621093,34,35.73,140.83,55.99,4.7
byron bay,0,AU,1580621093,55,-28.65,153.62,96.8,20.8
iwo,0,NG,1580621094,21,7.63,4.18,63.36,4.09
arraial do cabo,100,BR,1580621094,90,-22.97,-42.03,76.77,14.27
bathsheba,40,BB,1580621094,78,13.22,-59.52,78.8,18.34
gazojak,100,TM,1580621094,48,41.19,61.4,47.75,8.79
ola,0,RU,1580621094,72,59.58,151.28,-6.54,8.32
havoysund,100,NO,1580620925,67,71.0,24.66,21.2,19.46
sharjah,17,AE,1580620986,67,25.36,55.4,66.2,3.36
lakeside,1,US,1580621094,87,30.13,-81.77,50.0,5.82
kars,40,TR,1580621094,78,40.6,43.09,14.0,2.24
mar del plata,5,AR,1580621094,82,-38.0,-57.56,70.0,10.29
laguna,1,US,1580621051,87,38.42,-121.42,55.0,2.33
san policarpo,21,PH,1580621095,69,12.18,125.51,77.77,17.25
iqaluit,90,CA,1580621095,92,63.75,-68.51,12.2,8.05
thunder bay,90,CA,1580620881,98,48.4,-89.32,32.0,4.7
troitsko-pechorsk,72,RU,1580621095,98,62.71,56.2,-5.84,2.89
kruisfontein,100,ZA,1580621095,57,-34.0,24.73,80.29,8.63
belmonte,55,BR,1580621095,88,-15.86,-38.88,77.0,5.82
quatre cocos,75,MU,1580621095,78,-20.21,57.76,82.4,10.29
tiksi,0,RU,1580621095,85,71.69,128.87,-26.48,6.67
vols,90,AT,1580621095,100,47.25,11.33,37.99,2.24
puerto ayora,83,EC,1580621095,7,-0.74,-90.35,75.99,1.01
biak,97,ID,1580621096,68,-0.91,122.88,86.0,9.1
cockburn town,43,TC,1580621096,81,21.46,-71.14,78.6,13.8
guadalupe y calvo,100,MX,1580621096,33,26.1,-106.97,41.74,6.42
boda,2,CF,1580621096,25,4.32,17.47,68.11,3.33
namatanai,34,PG,1580620984,76,-3.67,152.43,84.52,14.29
nishihara,40,JP,1580621096,48,26.18,127.76,66.2,8.05
ribeira grande,100,PT,1580621096,77,38.52,-28.7,54.03,5.55
itambacuri,62,BR,1580621096,90,-18.03,-41.69,65.07,0.83
port elizabeth,90,ZA,1580621096,100,-33.92,25.57,71.6,9.17
san felipe,33,VE,1580621096,95,10.34,-68.74,72.46,0.47
miyang,97,CN,1580621097,79,24.4,103.44,54.18,8.84
grindavik,40,IS,1580621097,86,63.84,-22.43,26.6,9.17
gat,40,IL,1580620982,93,31.61,34.76,53.6,3.36
longyearbyen,75,SJ,1580621097,73,78.22,15.64,23.0,20.8
ponta do sol,20,PT,1580621097,42,32.67,-17.1,66.2,5.82
volksrust,0,ZA,1580621097,53,-27.37,29.88,73.63,0.69
markova,75,UA,1580621097,76,48.68,24.41,50.0,6.71
shubarshi,99,KZ,1580621097,95,48.59,57.19,26.24,2.53
atar,0,MR,1580621097,13,20.52,-13.05,64.18,13.0
sao jose da coroa grande,43,BR,1580621097,81,-8.9,-35.15,80.96,10.96
coquimbo,2,CL,1580621098,82,-29.95,-71.34,64.4,3.36
fredericksburg,90,US,1580621098,100,38.3,-77.46,43.0,2.98
vaini,20,TO,1580621098,78,-21.2,-175.2,82.4,12.75
barrow,1,US,1580621098,96,71.29,-156.79,-36.4,6.93
ipanema,8,BR,1580621098,83,-30.14,-51.22,73.0,6.93
sitka,90,US,1580621098,80,57.05,-135.33,30.2,4.7
beringovskiy,73,RU,1580621098,95,63.05,179.32,-26.68,22.73
taybad,70,IR,1580621098,41,34.74,60.78,46.9,30.22
carnarvon,0,AU,1580621098,33,-24.87,113.63,91.4,12.75
nyurba,98,RU,1580621098,97,63.28,118.33,-21.84,1.59
bowen,11,AU,1580621098,52,-20.02,148.23,90.0,10.29
kapaa,90,US,1580621098,83,22.08,-159.32,71.6,18.34
mutsu,75,JP,1580621099,80,41.29,141.22,42.01,13.87
kudahuvadhoo,100,MV,1580621099,74,2.67,72.89,82.06,16.24
saint-francois,100,FR,1580621099,81,46.42,3.91,50.0,8.05
faanui,100,PF,1580621099,78,-16.48,-151.75,82.53,24.76
tabou,27,CI,1580621099,92,4.42,-7.35,76.32,2.39
euclid,90,US,1580621099,94,41.59,-81.53,35.6,18.34
lotofaga,75,WS,1580621099,74,-13.98,-171.86,86.0,11.68
tawau,75,MY,1580621099,55,4.25,117.89,89.6,5.82
stanislav,80,UA,1580621099,100,46.57,32.15,43.0,8.95
balkhash,0,KZ,1580621100,71,46.84,74.98,8.6,8.95
hithadhoo,78,MV,1580621100,72,-0.6,73.08,82.4,13.04
coahuayana,100,MX,1580621100,88,18.73,-103.68,68.76,3.02
camacupa,97,AO,1580621100,97,-12.02,17.48,63.3,5.01
georgetown,20,MY,1580621007,62,5.41,100.34,87.8,3.36
la ronge,90,CA,1580621100,92,55.1,-105.28,24.8,3.36
cape town,20,ZA,1580620877,93,-33.93,18.42,70.0,5.82
srednekolymsk,98,RU,1580621100,97,67.45,153.68,-19.46,6.73
chapleau,95,CA,1580621100,92,47.84,-83.4,25.47,9.13
ouadda,0,CF,1580621100,24,8.08,22.4,66.16,4.85
miyako,55,JP,1580621101,53,39.64,141.95,39.58,5.48
canyon lake,1,US,1580620881,47,29.88,-98.26,54.0,3.36
nyrob,92,RU,1580621101,96,60.73,56.72,10.51,3.67
mamakan,91,RU,1580621101,92,57.82,114.0,-17.43,1.66
nizhniy odes,96,RU,1580621101,99,63.64,54.86,-15.95,4.07
khani,90,GE,1580621101,100,41.96,42.96,35.6,4.7
avera,1,US,1580621101,93,33.19,-82.53,46.4,9.17
qasigiannguit,100,GL,1580621101,77,68.82,-51.19,3.2,4.7
codrington,65,AU,1580621101,68,-38.27,141.97,61.18,26.31
melilla,0,ES,1580621101,87,35.29,-2.94,53.6,7.05
provideniya,0,RU,1580621101,93,64.38,-173.3,-19.86,10.98
tura,0,IN,1580621102,30,25.52,90.22,71.8,5.39
negara,50,ID,1580621102,69,-8.32,114.6,83.8,2.55
mehamn,100,NO,1580621102,89,71.04,27.85,12.25,18.68
labytnangi,100,RU,1580621102,97,66.66,66.42,-3.95,9.64
semnan,58,IR,1580621102,41,35.57,53.4,39.13,7.49
hami,0,CN,1580621102,54,42.8,93.45,19.4,1.39
mahenge,100,TZ,1580621102,93,-8.68,36.72,75.07,1.32
brigham city,1,US,1580621102,80,41.51,-112.02,39.99,3.36
east london,100,ZA,1580620895,94,-33.02,27.91,75.2,4.7
vanavara,98,RU,1580621102,88,60.34,102.28,-21.73,1.7
richards bay,0,ZA,1580621103,81,-28.78,32.04,77.83,17.09
vila,75,PT,1580621103,100,42.03,-8.16,63.0,10.29
oume,1,JP,1580621103,25,35.78,139.24,57.99,9.17
kazerun,11,IR,1580621103,74,29.62,51.65,52.16,5.35
amarante,69,BR,1580621103,96,-6.24,-42.85,71.26,2.71
puerto rico,2,AR,1580621103,80,-26.8,-55.02,70.12,2.08
noumea,75,NC,1580620845,43,-22.28,166.46,91.4,4.7
peshkopi,20,AL,1580621103,86,41.69,20.43,48.2,3.36
celestun,1,MX,1580620866,70,20.87,-90.4,70.88,18.92
nakusp,59,CA,1580621104,95,50.25,-117.8,30.0,5.01
bakchar,98,RU,1580621104,85,57.02,82.07,7.43,6.31
bengkulu,27,ID,1580621104,56,-3.8,102.27,89.82,4.47
tautira,40,PF,1580621104,83,-17.73,-149.15,78.8,14.99
kaitangata,100,NZ,1580621104,95,-46.28,169.85,54.34,8.37
mareeba,90,AU,1580621104,78,-17.0,145.43,87.01,11.41
hawick,99,GB,1580621104,100,55.42,-2.79,36.0,3.36
inhambane,20,MZ,1580621104,78,-23.86,35.38,78.8,4.7
valenca do piaui,98,BR,1580621105,95,-6.41,-41.75,69.01,1.36
te anau,100,NZ,1580621105,96,-45.42,167.72,58.98,2.01
praia da vitoria,40,PT,1580621105,93,38.73,-27.07,53.6,6.46
port lincoln,51,AU,1580621105,48,-34.73,135.87,72.39,15.55
lompoc,90,US,1580621105,100,34.64,-120.46,54.0,10.07
ebolowa,70,CM,1580621105,98,2.9,11.15,67.59,2.39
fort nelson,40,CA,1580620833,69,58.81,-122.7,-9.4,4.7
victoria,20,HK,1580621056,63,22.29,114.16,70.0,16.11
christchurch,26,NZ,1580621014,31,-43.53,172.63,93.0,19.46
kondinskoye,100,RU,1580621105,94,59.65,67.41,14.31,7.4
ahipara,71,NZ,1580621106,63,-35.17,173.17,84.0,1.99
hamilton,90,US,1580620890,74,39.18,-84.53,37.99,9.17
shieli,100,KZ,1580621106,56,44.17,66.75,41.32,20.33
baie-comeau,90,CA,1580620995,92,49.22,-68.15,19.99,4.7
nome,90,US,1580621106,77,64.5,-165.41,1.4,11.41
portland,90,US,1580621048,70,45.52,-122.68,43.0,6.93
saldanha,1,ZA,1580621106,87,-33.01,17.94,60.8,3.36
ancud,12,CL,1580621106,100,-41.87,-73.82,42.8,1.12
saint-philippe,29,RE,1580621106,62,-21.36,55.77,86.0,16.11
zharkent,43,KZ,1580621106,66,44.16,80.0,26.89,2.93
oktyabrskiy,91,RU,1580621106,95,54.48,53.47,21.06,5.35
ouesso,7,CG,1580621106,59,1.61,16.05,71.33,2.04
dobrljin,56,BA,1580621107,81,45.15,16.48,46.4,5.82
caraquet,90,CA,1580621107,85,47.79,-64.94,21.0,2.24
chuy,0,UY,1580621107,81,-33.7,-53.46,68.34,8.34
geelong,75,AU,1580621107,49,-38.15,144.36,75.99,19.46
mulege,90,MX,1580621107,57,26.88,-111.98,60.24,2.1
guerrero negro,55,MX,1580621107,28,27.98,-114.06,65.48,5.1
leningradskiy,99,RU,1580621107,94,69.38,178.42,-17.77,9.1
redmond,75,US,1580620565,91,47.67,-122.12,39.99,4.7
tidman,100,PH,1580621108,77,8.3,126.34,80.1,22.88
dingle,44,PH,1580621108,71,11.0,122.67,79.23,14.14
mbengwi,26,CM,1580621108,26,6.02,10.0,58.91,2.1
caravelas,20,BR,1580621108,85,-17.71,-39.25,79.77,14.58
meteti,100,PA,1580621108,98,8.5,-77.98,73.94,3.4
muravlenko,100,RU,1580621108,94,63.79,74.52,6.66,16.08
marsa matruh,32,EG,1580621108,81,31.35,27.25,48.2,7.58
ilulissat,100,GL,1580621108,77,69.22,-51.1,3.2,4.7
pangnirtung,100,CA,1580621108,92,66.15,-65.71,-7.56,11.5
sulangan,17,PH,1580621109,70,11.14,123.72,79.39,18.19
imbituba,20,BR,1580621109,94,-28.24,-48.67,73.4,4.7
hammerfest,100,NO,1580621109,67,70.66,23.68,21.2,19.46
caconda,100,AO,1580621109,91,-13.73,15.07,62.47,0.94
ondjiva,34,AO,1580621109,74,-17.07,15.73,71.06,2.08
la paz,75,BO,1580620868,93,-16.5,-68.15,46.4,6.93
komsomolskiy,99,UZ,1580621109,35,40.43,71.72,42.8,3.33
weatherford,1,US,1580621085,46,32.76,-97.8,57.2,8.05
ati,87,TD,1580621109,21,13.22,18.34,60.39,8.55
talnakh,0,RU,1580621109,74,69.49,88.4,-25.6,4.47
sabang,65,ID,1580621109,77,5.89,95.32,82.6,20.85
okha,80,RU,1580621110,94,53.57,142.95,0.59,4.34
shenjiamen,37,CN,1580621110,63,29.96,122.3,51.94,8.79
ucluelet,72,CA,1580621110,91,48.93,-125.55,37.0,5.21
elizabeth city,90,US,1580621110,87,36.29,-76.25,45.0,9.17
pokhara,0,NP,1580621110,39,28.23,83.98,65.82,2.51
pacific grove,90,US,1580621110,93,36.62,-121.92,55.0,5.82
warangal,63,IN,1580621110,54,18.0,79.58,80.78,9.89
beisfjord,99,NO,1580621110,73,68.38,17.6,28.0,6.93
mahebourg,75,MU,1580621110,78,-20.41,57.7,82.4,10.29
yeppoon,0,AU,1580621110,38,-23.13,150.73,93.2,11.41
jumla,0,NP,1580621111,82,29.27,82.18,51.01,3.0
umm lajj,0,SA,1580621111,12,25.02,37.27,67.14,9.06
mahon,53,ES,1580621111,93,39.89,4.27,53.6,6.93
saint george,1,US,1580620950,42,37.1,-113.58,48.2,4.65
kannangad,20,IN,1580621111,79,12.31,75.11,84.2,3.36
steinbach,90,DE,1580621111,75,50.17,8.57,46.99,3.36
fairbanks,99,US,1580620934,73,64.84,-147.72,-22.0,3.36
sobolevo,100,RU,1580621111,98,54.43,31.9,38.28,12.17
tabriz,20,IR,1580621026,85,38.08,46.29,19.4,4.7
kloulklubed,75,PW,1580621111,66,7.04,134.26,86.0,11.41
shingu,20,JP,1580621111,46,33.73,135.98,53.6,10.29
tilichiki,0,RU,1580621112,90,60.47,166.1,-27.17,10.07
phan thiet,0,VN,1580621112,37,10.93,108.1,88.05,12.26
chokurdakh,100,RU,1580621112,98,70.63,147.92,-26.64,6.49
charters towers,0,AU,1580621112,34,-20.1,146.27,90.57,8.95
inuvik,75,CA,1580621112,65,68.35,-133.72,-34.6,10.09
shache,10,CN,1580621112,96,38.42,77.24,39.99,0.98
saint-augustin,85,CA,1580621112,86,51.23,-58.65,13.68,2.21
pizarro,100,CO,1580621112,83,4.95,-77.37,79.88,5.08
walvis bay,90,NA,1580621112,93,-22.96,14.51,62.01,11.41
la asuncion,12,VE,1580621112,94,11.03,-63.86,78.8,17.22
puri,20,IN,1580621112,60,19.8,85.85,73.4,10.29
nanortalik,0,GL,1580621112,57,60.14,-45.24,17.49,16.46
kenai,1,US,1580621113,76,60.55,-151.26,3.99,4.65
vostok,100,RU,1580621113,85,46.49,135.88,7.75,8.14
mega,81,ET,1580621113,54,4.05,38.3,72.77,2.13
kavieng,50,PG,1580621113,76,-2.57,150.8,84.69,15.57
fereydun kenar,90,IR,1580621113,93,36.69,52.52,44.6,6.93
mawlaik,2,MM,1580621113,33,23.63,94.42,81.21,2.28
kaz,4,RU,1580621114,62,52.91,87.31,24.53,1.92
azare,55,NG,1580621114,21,11.68,10.19,54.1,6.69
fortuna,90,US,1580621114,100,40.6,-124.16,51.01,12.75
morant bay,20,JM,1580621114,74,17.88,-76.41,80.6,6.93
dullewala,0,PK,1580621115,29,31.84,71.44,63.93,5.77
luderitz,87,NA,1580621115,90,-26.65,15.16,63.36,20.78
port blair,75,IN,1580621115,74,11.67,92.75,82.4,10.29
yumen,0,CN,1580621116,30,40.28,97.2,29.68,6.22
qaqortoq,0,GL,1580621116,49,60.72,-46.03,-2.2,5.21
floro,97,NO,1580621116,72,61.6,5.03,39.2,21.92
ngunguru,0,NZ,1580621116,79,-35.62,174.5,82.0,5.01
puerto colombia,66,CO,1580621117,83,10.99,-74.95,80.6,10.29
tasiilaq,100,GL,1580621117,79,65.61,-37.64,24.8,21.92
leshukonskoye,43,RU,1580621117,97,64.9,45.76,-19.86,5.55
kota bahru,40,MY,1580621117,66,6.13,102.24,86.0,12.75
deputatskiy,3,RU,1580621117,90,69.3,139.9,-30.46,3.29
faya,79,SA,1580621117,81,18.39,42.45,55.4,3.56
lichinga,75,MZ,1580621118,93,-13.31,35.24,64.4,5.82
podujevo,20,XK,1580621118,92,42.91,21.19,32.0,3.36
la palma,1,US,1580621118,42,33.85,-118.05,68.0,1.01
betong,74,TH,1580621118,45,5.77,101.07,87.82,5.93
aktash,98,RU,1580621118,66,50.3,87.73,14.23,3.98
vila franca do campo,40,PT,1580621118,93,37.72,-25.43,60.8,5.82
margate,90,GB,1580621118,93,51.38,1.39,46.99,6.93
geraldton,0,AU,1580621118,14,-28.77,114.6,105.8,14.99
norman wells,75,CA,1580621118,68,65.28,-126.83,-16.6,11.41
lock haven,90,US,1580621118,86,41.14,-77.45,36.0,10.29
cascais,20,PT,1580621118,100,38.7,-9.42,57.99,2.24
coihaique,18,CL,1580621119,53,-45.58,-72.07,51.8,13.87
santa isabel do rio negro,100,BR,1580621119,98,-0.41,-65.02,73.54,1.07
upernavik,8,GL,1580621119,95,72.79,-56.15,-26.23,8.41
necochea,5,AR,1580621119,69,-38.55,-58.74,69.01,8.01
dallas,20,US,1580620692,37,32.77,-96.78,55.0,6.62
katsuura,40,JP,1580621119,30,35.13,140.3,57.99,11.41
muli,66,MV,1580621119,69,2.92,73.57,82.54,14.34
hofn,100,IS,1580621119,95,64.25,-15.21,34.74,21.68
cap malheureux,75,MU,1580621119,78,-19.98,57.61,82.4,10.29
konstantinovka,44,RU,1580621119,79,49.62,127.98,7.97,11.32
la rioja,100,ES,1580621120,93,42.25,-2.5,50.0,2.24
channel-port aux basques,100,CA,1580621120,93,47.57,-59.14,28.0,16.62
nioro,27,GM,1580621120,53,13.35,-15.75,64.8,6.08
zhezkazgan,95,KZ,1580621120,84,47.8,67.71,6.8,6.71
monterey,90,US,1580621120,93,36.25,-121.25,60.01,8.05
drumnadrochit,50,GB,1580621120,92,57.33,-4.48,28.99,0.58
maicao,0,CO,1580621120,77,11.38,-72.24,79.54,22.84
kaili,100,ID,1580621120,89,-3.46,120.21,67.89,2.3
port hardy,40,CA,1580621120,89,50.7,-127.42,32.0,5.82
evensk,0,RU,1580621120,71,61.95,159.23,-19.25,13.0
nakhon phanom,0,TH,1580621121,48,17.41,104.78,82.4,3.36
nanpiao,100,CN,1580621121,48,41.1,120.75,24.48,6.49
roebourne,11,AU,1580621121,15,-20.78,117.13,102.45,4.68
ust-ishim,100,RU,1580621121,88,57.69,71.17,11.53,8.03
yarmouth,90,US,1580621121,86,41.71,-70.23,39.2,5.82
zermatt,90,CH,1580621121,93,46.02,7.75,42.8,10.74
tuy hoa,78,VN,1580621121,79,13.08,109.3,73.45,14.23
iralaya,2,HN,1580621121,77,15.0,-83.23,80.11,16.04
moindou,75,NC,1580621121,43,-21.69,165.68,91.4,4.7
makakilo city,20,US,1580621122,69,21.35,-158.09,73.4,4.52
mandera,95,KE,1580621122,42,3.94,41.87,84.13,7.38
grand baie,75,MU,1580620898,78,-20.02,57.58,82.4,10.29
biri,11,PH,1580621122,67,12.68,124.36,77.09,15.59
dwarahat,0,IN,1580621122,20,29.78,79.43,53.78,2.51
cayenne,30,GF,1580621122,94,4.93,-52.33,71.6,5.08
high level,90,CA,1580621122,77,58.52,-117.14,-2.2,16.11
hue,20,VN,1580621122,48,16.47,107.6,84.2,6.93
palestine,40,PS,1580621122,93,31.92,35.2,53.6,3.36
nouadhibou,0,MR,1580621122,34,20.93,-17.03,64.4,12.75
sao filipe,0,CV,1580621122,53,14.9,-24.5,73.71,9.31
uberlandia,100,BR,1580620885,77,-18.92,-48.28,69.8,10.29
mayumba,85,GA,1580621123,74,-3.43,10.66,82.67,5.95
jinhua,69,CN,1580621123,10,29.11,119.65,61.0,2.48
sur,59,OM,1580621123,49,22.57,59.53,70.79,7.7
kalanguy,15,RU,1580621123,86,51.02,116.52,-7.96,6.22
plettenberg bay,100,ZA,1580621123,74,-34.05,23.37,74.14,6.51
harper,27,LR,1580621123,92,4.38,-7.72,76.32,2.39
kirakira,97,SB,1580621123,72,-10.45,161.92,83.32,5.21
oranjemund,94,NA,1580621123,88,-28.55,16.43,64.24,11.77
varadero,40,CU,1580621123,78,23.15,-81.25,73.4,9.17
udachnyy,47,RU,1580621124,66,66.42,112.4,-32.8,4.47
mindelo,0,CV,1580621124,88,16.89,-24.98,68.0,9.17
estelle,0,US,1580621124,93,29.85,-90.11,50.0,4.7
lerici,75,IT,1580621124,100,44.08,9.91,55.99,2.24
rundu,94,NA,1580621124,76,-17.93,19.77,70.47,3.87
tuatapere,100,NZ,1580621124,94,-46.13,167.68,57.0,1.99
passagem franca,93,BR,1580621124,95,-6.18,-43.78,70.54,1.99
aklavik,75,CA,1580621124,65,68.22,-135.01,-34.6,5.64
husavik,34,IS,1580621124,84,66.04,-17.34,-0.4,3.36
vao,100,NC,1580621124,81,-22.67,167.48,79.54,17.83
farmington,1,US,1580620916,68,36.73,-108.22,30.0,4.7
harlingen,1,US,1580621125,76,26.19,-97.7,59.0,6.93
escanaba,90,US,1580620849,74,45.75,-87.06,33.8,5.82
ugoofaaru,5,MV,1580621125,71,5.67,73.0,81.72,14.36
ailigandi,100,PA,1580621125,98,9.23,-78.02,73.69,3.67
lucapa,100,AO,1580621125,96,-8.42,20.74,67.03,3.22
neuquen,15,AR,1580621045,34,-38.95,-68.06,66.2,16.11
zonguldak,29,TR,1580621125,83,41.25,31.83,35.82,5.61
kolokani,0,ML,1580621125,14,13.57,-8.03,67.37,9.86
jimenez,97,MX,1580621125,27,28.33,-105.4,51.37,2.68
gatesville,1,US,1580621125,46,31.44,-97.74,55.4,9.82
sioux lookout,90,CA,1580621125,100,50.1,-91.92,26.6,5.82
lethem,46,GY,1580621126,69,3.38,-59.8,75.79,13.58
surt,29,LY,1580621126,63,31.21,16.59,54.59,1.3
mahibadhoo,68,MV,1580621126,76,3.78,72.97,81.66,15.52
gravdal,84,NO,1580621126,73,68.12,13.5,37.71,15.43
behbahan,20,IR,1580621126,66,30.6,50.24,48.2,9.17
chiredzi,74,ZW,1580621126,70,-21.05,31.67,76.48,8.28
severo-kurilsk,0,RU,1580621126,83,50.68,156.12,16.88,10.94
yar-sale,100,RU,1580621126,95,66.83,70.83,-5.48,15.61
atasu,0,KZ,1580621126,76,48.68,71.64,21.65,3.0
porto novo,40,BJ,1580621126,94,6.5,2.6,78.8,3.36
batagay-alyta,43,RU,1580621126,89,67.8,130.41,-29.25,1.97
naze,75,JP,1580621127,42,28.37,129.48,64.4,8.05
esperance,40,AU,1580621127,53,-33.87,121.9,71.6,16.11
longonjo,100,AO,1580621127,92,-12.91,15.25,61.03,1.61
glendive,1,US,1580621127,49,47.11,-104.71,51.01,19.46
katherine,40,AU,1580621127,52,-14.47,132.27,93.2,14.99
nikolskoye,90,RU,1580621127,100,59.7,30.79,36.0,11.18
gamba,82,GA,1580621127,88,-2.65,10.0,77.67,2.77
jingdezhen,99,CN,1580621127,60,29.29,117.21,54.27,3.53
rawson,18,AR,1580621127,51,-43.3,-65.1,62.22,20.42
kasempa,100,ZM,1580621128,98,-13.46,25.83,64.31,5.32
singarayakonda,34,IN,1580621128,56,15.25,80.03,83.37,13.94
aswan,0,EG,1580621128,49,24.09,32.91,46.4,6.93
sayyan,38,YE,1580621128,37,15.17,44.32,60.19,1.72
stadtbredimus,75,LU,1580621128,100,49.56,6.36,50.0,5.82
sept-iles,90,CA,1580621128,92,50.2,-66.38,17.6,5.82
sangar,97,RU,1580621128,98,63.92,127.47,-24.0,4.97
smithers,40,CA,1580621128,73,54.78,-127.17,23.0,6.93
menongue,100,AO,1580621128,94,-14.66,17.69,64.36,2.13
grand gaube,75,MU,1580621129,78,-20.01,57.66,82.4,10.29
guangyuan,100,CN,1580621129,35,32.44,105.82,55.99,1.01
dumas,1,US,1580621129,45,35.87,-101.97,51.8,10.29
jiaojiang,27,CN,1580621129,56,28.68,121.44,70.0,1.01
moundou,14,TD,1580621129,20,8.57,16.08,61.56,3.51
highland,5,US,1580621129,31,34.13,-117.21,69.8,2.15
lagos,20,NG,1580621129,94,6.58,3.75,77.0,13.87
ambovombe,0,MG,1580621129,51,-25.17,46.08,85.08,5.21
sibu,75,MY,1580621129,66,2.3,111.82,87.8,4.7
puerto del rosario,0,ES,1580621129,87,28.5,-13.86,59.0,6.93
sinazongwe,1,ZM,1580621129,72,-17.26,27.46,76.71,6.67
oskemen,75,KZ,1580621130,84,49.96,82.61,-2.2,2.24
lavrentiya,90,RU,1580621130,89,65.58,-171.0,-19.01,10.76
acapulco,40,MX,1580620875,88,16.86,-99.89,75.2,3.24
mocuba,52,MZ,1580621130,89,-16.84,36.99,78.3,2.86
saint-joseph,0,RE,1580621130,62,-21.37,55.62,86.0,16.11
otjimbingwe,76,NA,1580621130,37,-22.35,16.13,77.47,3.65
canete,23,CL,1580621130,87,-37.8,-73.4,54.52,4.94
madang,31,PG,1580621130,78,-5.22,145.8,82.98,12.26
cabo san lucas,75,MX,1580620898,68,22.89,-109.91,68.0,5.82
banjar,20,ID,1580621131,74,-8.19,114.97,87.8,10.29
suntar,65,RU,1580621131,91,62.14,117.63,-22.29,4.27
egvekinot,0,RU,1580621131,93,66.32,-179.17,-30.57,9.48
canatlan,100,MX,1580621131,84,24.52,-104.78,44.01,6.93
svetlaya,2,RU,1580621131,57,46.54,138.33,21.43,10.98
lata,100,PT,1580621131,93,40.16,-8.33,57.99,8.05
sembakung,100,ID,1580621131,48,3.82,117.25,89.06,6.78
pisco,97,PE,1580621131,88,-13.7,-76.22,71.6,10.29
jhargram,0,IN,1580621131,27,22.45,86.98,73.65,8.37
songjianghe,92,CN,1580621131,55,42.19,127.48,17.85,4.9
minggang,0,CN,1580621131,43,32.46,114.05,55.78,10.02
iberia,1,US,1580621132,81,29.95,-91.75,50.0,3.04
lorengau,72,PG,1580621132,78,-2.02,147.27,84.67,16.4
salisbury,100,GB,1580621132,100,51.07,-1.8,53.6,11.41
myitkyina,2,MM,1580621132,33,25.38,97.4,81.99,1.43
alugan,21,PH,1580621132,69,12.22,125.48,77.77,17.25
gizo,85,SB,1580621132,81,-8.1,156.84,82.06,7.4
napoleon,90,US,1580621132,86,41.39,-84.13,35.6,8.05
sistranda,75,NO,1580621132,86,63.73,8.83,42.01,27.51
osinki,92,RU,1580621132,93,52.84,49.51,24.06,6.93
bud,90,US,1580621132,80,39.45,-86.18,36.0,9.17
korla,88,CN,1580621132,90,41.76,86.15,33.01,1.99
bay roberts,90,CA,1580621133,72,47.6,-53.26,18.0,8.05
aripuana,40,BR,1580621133,95,-9.17,-60.63,73.92,1.95
pontal do parana,75,BR,1580621133,100,-25.65,-48.51,75.99,3.36
milkovo,0,RU,1580621133,90,54.72,158.62,-10.35,0.72
chapada dos guimaraes,100,BR,1580621133,83,-15.46,-55.75,77.0,3.27
westport,90,US,1580620993,93,41.14,-73.36,39.99,4.7
lagoa,100,PT,1580621133,73,39.05,-27.98,57.61,6.22
olavarria,93,AR,1580621133,62,-36.89,-60.32,75.99,12.46
severomuysk,3,RU,1580621133,83,56.15,113.43,-19.08,4.14
guiratinga,99,BR,1580621133,90,-16.35,-53.76,72.88,1.19
kodinsk,19,RU,1580621134,87,58.69,99.18,-18.36,2.48
letnyaya stavka,93,RU,1580621134,70,45.43,43.45,38.68,11.99
los llanos de aridane,0,ES,1580621134,40,28.66,-17.92,68.0,8.05
luena,100,AO,1580621134,94,-11.78,19.92,64.98,1.54
khakhea,0,BW,1580621134,38,-24.69,23.49,77.25,18.63
shetpe,100,KZ,1580621134,81,44.17,52.12,34.09,12.03
vallenar,1,CL,1580621134,89,-28.57,-70.76,58.1,1.52
saint-pierre,0,RE,1580621134,62,-21.34,55.48,86.0,16.11
manaure,6,CO,1580621134,83,11.78,-72.44,78.73,16.2
kerrville,1,US,1580621134,75,30.05,-99.14,51.01,6.69
mangrol,0,IN,1580621134,48,21.12,70.12,71.6,10.0
loralai,0,PK,1580621135,31,30.37,68.6,42.64,3.04
matagami,90,CA,1580621135,92,49.75,-77.63,28.4,9.17
basse-pointe,40,MQ,1580621135,83,14.87,-61.12,77.0,9.17
brake,75,DE,1580621135,87,53.33,8.48,46.4,17.22
fukue,20,JP,1580621135,50,32.69,128.84,55.4,9.17
hailar,0,CN,1580621135,85,49.2,119.7,-5.53,15.73
tolosa,40,FR,1580620949,100,43.6,1.44,55.0,5.82
vestmannaeyjar,16,IS,1580621135,74,63.44,-20.27,34.97,9.55
hartselle,1,US,1580621135,93,34.44,-86.94,42.01,6.42
quelimane,40,MZ,1580621135,88,-17.88,36.89,82.4,3.36
beloha,0,MG,1580621135,43,-25.17,45.05,87.26,11.36
chapais,90,CA,1580621136,92,49.78,-74.85,21.2,9.17
agadez,0,NE,1580621136,31,19.75,10.25,54.34,1.23
tamiahua,100,MX,1580621136,67,21.27,-97.45,65.28,5.5
kjustendil,66,BG,1580621136,86,42.28,22.69,34.0,1.99
kota belud,75,MY,1580621136,70,6.35,116.43,88.0,4.7
wenling,27,CN,1580621136,49,28.37,121.36,70.0,6.31
lakatoro,75,VU,1580621136,79,-16.1,167.42,86.0,10.29
levin,97,NZ,1580620948,86,-40.63,175.28,75.0,1.01
taoudenni,0,ML,1580621136,22,22.68,-3.98,55.65,5.68
kortkeros,75,RU,1580621137,92,61.81,51.58,5.0,3.94
ambilobe,95,MG,1580621137,77,-13.2,49.05,82.81,2.42
cabedelo,75,BR,1580621137,94,-6.98,-34.83,77.0,2.24
puerto leguizamo,100,CO,1580621137,98,-0.19,-74.78,72.36,0.85
pringsewu,97,ID,1580621137,65,-5.36,104.97,85.59,7.56
morro agudo,100,BR,1580621081,94,-20.73,-48.06,71.6,3.36
kerman,20,IR,1580621137,21,30.28,57.08,50.0,13.87
teseney,14,ER,1580621137,51,15.11,36.66,71.83,6.46
nuuk,7,GL,1580621137,66,64.18,-51.72,14.0,8.05
curuguaty,77,PY,1580621137,98,-24.47,-55.69,71.67,2.55
pangoa,100,PE,1580621137,96,-12.12,-73.0,67.75,1.32
ciudad bolivar,9,VE,1580621138,69,8.12,-63.55,76.53,9.82
dudinka,0,RU,1580621138,74,69.41,86.18,-25.6,4.47
valparaiso,0,CL,1580621138,87,-33.04,-71.63,59.0,2.06
tabuk,71,PH,1580621138,73,17.42,121.44,73.89,9.17
las cruces,1,US,1580620951,29,32.31,-106.78,48.2,6.93
general pico,50,AR,1580621138,27,-35.66,-63.76,76.46,8.72
kyzyl,90,RU,1580621138,88,51.7,94.45,-6.29,0.4
marquette,90,US,1580621138,90,46.53,-87.63,34.0,8.05
zabol,0,AF,1580621138,67,32.25,67.25,19.8,4.34
tornio,90,FI,1580621138,92,65.85,24.13,23.0,9.17
norwalk,1,US,1580621139,42,33.9,-118.08,68.0,1.01
riohacha,0,CO,1580621139,80,11.54,-72.91,77.61,10.04
damara,0,CF,1580621139,26,4.96,18.7,69.35,3.31
voyvozh,93,RU,1580621139,98,62.89,54.96,-11.15,4.63
niamey,5,NE,1580621059,17,13.51,2.11,66.2,3.36
raudeberg,98,NO,1580621139,73,61.99,5.14,39.2,21.92
nabire,72,ID,1580621139,75,-3.37,135.48,83.73,4.9
lago da pedra,83,BR,1580621139,98,-4.33,-45.17,72.84,3.42
hovd,91,MN,1580621139,61,48.01,91.64,0.48,4.81
kuching,75,MY,1580621003,74,1.55,110.33,87.8,9.17
cairns,90,AU,1580621139,78,-16.92,145.77,87.01,11.41
la solana,25,ES,1580621140,98,38.94,-3.24,48.99,3.24
meulaboh,44,ID,1580621140,72,4.14,96.13,83.1,5.17
northam,100,GB,1580621140,96,51.03,-4.22,54.0,17.0
salalah,40,OM,1580621140,53,17.02,54.09,73.4,2.24
klyuchi,0,RU,1580621140,82,52.27,79.17,13.98,9.82
brewster,90,US,1580621140,95,41.4,-73.62,39.2,3.13
bratsk,20,RU,1580621140,75,56.13,101.61,-14.01,4.47
linqing,20,CN,1580621140,47,36.85,115.71,45.36,6.22
dawlatabad,62,AF,1580621140,18,36.41,64.91,54.81,1.01
dzerzhinskoye,39,RU,1580621141,92,56.83,95.23,-11.04,3.74
iwaki,75,JP,1580621141,41,37.05,140.88,51.01,10.29
derzhavinsk,100,KZ,1580621141,79,51.1,66.32,16.65,5.12
victoria point,20,AU,1580621141,58,-27.58,153.3,96.01,19.46
kavaratti,20,IN,1580621141,65,10.57,72.64,82.4,4.7
copiapo,0,CL,1580621141,77,-27.37,-70.33,64.4,6.93
colares,20,PT,1580621141,100,38.8,-9.45,57.99,2.24
kieta,51,PG,1580621141,79,-6.22,155.63,84.0,15.39
natalio,2,PY,1580621045,87,-26.72,-55.08,69.26,1.25
teya,30,RU,1580621142,92,60.38,92.63,-13.31,2.28
fontenay-le-comte,90,FR,1580621142,93,46.58,-1.0,57.99,21.92
kismayo,61,SO,1580621142,74,-0.36,42.55,81.68,10.09
khor,100,RU,1580621142,91,47.89,134.95,7.99,10.33
ereymentau,0,KZ,1580621142,75,51.62,73.1,19.6,4.09
farafangana,55,MG,1580621142,79,-22.82,47.83,79.47,15.7
moron,0,AR,1580621142,69,-34.65,-58.62,79.0,3.36
inongo,95,CD,1580621142,83,-1.95,18.27,74.84,2.73
nhulunbuy,40,AU,1580621142,52,-12.23,136.77,91.4,8.05
languyan,96,PH,1580621143,80,5.26,120.08,81.27,11.68
pointe michel,0,DM,1580621143,78,15.25,-61.38,78.84,17.72
turan,20,VN,1580621143,57,16.07,108.22,84.2,1.12
saint anthony,1,US,1580621143,80,45.02,-93.22,37.99,11.41
yashalta,100,RU,1580621143,91,46.34,42.28,42.26,13.65
igarka,0,RU,1580621143,86,67.47,86.58,-29.16,10.0
peniche,100,PT,1580621143,93,39.36,-9.38,57.99,8.05
waipawa,74,NZ,1580620984,88,-41.41,175.52,69.01,27.51
vanimo,29,PG,1580621143,78,-2.67,141.3,82.87,20.29
yulara,7,AU,1580621143,27,-25.24,130.99,87.8,10.29
areka,100,ET,1580621144,82,7.07,37.7,66.78,2.06
santa maria do suacui,84,BR,1580621142,96,-18.19,-42.41,66.99,1.99
trogir,75,HR,1580621144,81,43.51,16.25,53.6,3.36
jiangkou,0,CN,1580621144,51,25.49,119.2,59.0,2.24
flin flon,100,CA,1580621144,93,54.77,-101.86,6.21,5.46
kabwe,40,ZM,1580621144,92,-14.45,28.45,66.88,9.31
noshiro,75,JP,1580621144,60,40.2,140.02,39.2,14.99
guiglo,44,CI,1580621144,99,6.55,-7.5,70.74,2.48
shahrud,100,IR,1580621144,59,36.42,54.98,31.42,6.64
shakawe,85,BW,1580621144,69,-18.37,21.85,73.33,6.2
bayir,20,TR,1580621144,93,37.27,28.22,39.2,2.24
